City_ID,City,Lat,Lng,Max Temp,Humidity,Cloudiness,Wind Speed,Country,Date
0,megion,61.0296,76.1136,-9.99,97,99,3.72,RU,1676524985
1,port alfred,-33.5906,26.891,19.54,96,99,0.45,ZA,1676524900
2,norman wells,65.282,-126.8329,-27.98,76,75,1.54,CA,1676524979
3,ancud,-41.8697,-73.8203,8.61,72,62,3.98,CL,1676524896
4,tocopilla,-22.092,-70.1979,21.61,84,37,1.35,CL,1676524914
5,busselton,-33.65,115.3333,22.88,56,56,5.26,AU,1676524908
6,mana,5.6592,-53.7767,24.15,92,100,3.99,GF,1676524987
7,jakarta,-6.2146,106.8451,30.05,57,40,7.72,ID,1676524214
8,rikitea,-23.1203,-134.9692,26.34,70,100,2.49,PF,1676524902
9,gladstone,-23.85,151.25,29.96,48,100,8.75,AU,1676524988
10,port blair,11.6667,92.75,28.01,69,32,5.37,IN,1676524988
11,miri,4.4148,114.0089,30.08,79,40,4.12,MY,1676524976
12,barrow,71.2906,-156.7887,-28.99,69,75,3.6,US,1676524916
13,mataura,-46.1927,168.8643,14.71,44,86,2.83,NZ,1676524899
14,estelle,29.8458,-90.1067,21.67,92,75,4.12,US,1676524989
15,arraial do cabo,-22.9661,-42.0278,24.47,91,100,3.24,BR,1676524916
16,belaya gora,68.5333,146.4167,-36.25,99,94,1.18,RU,1676524990
17,georgetown,5.4112,100.3354,30.97,55,20,1.54,MY,1676524750
18,pyapon,16.2833,95.6833,31.56,41,3,3.9,MM,1676524990
19,hamilton,39.1834,-84.5333,15.43,80,0,3.6,US,1676524991
20,khandbari,27.3747,87.2039,22.68,31,87,2.04,NP,1676524991
21,araouane,18.9048,-3.5265,21.02,16,100,6.94,ML,1676524992
22,grand gaube,-20.0064,57.6608,28.54,62,5,3.13,MU,1676524943
23,comodoro rivadavia,-45.8667,-67.5,9.92,32,0,9.77,AR,1676524993
24,ushuaia,-54.8,-68.3,1.81,93,75,8.23,AR,1676524675
25,kangavar,34.5043,47.9653,-2.46,81,9,1.2,IR,1676524993
26,new norfolk,-42.7826,147.0587,23.72,67,100,0.45,AU,1676524908
27,aksu,41.1231,80.2644,2.52,43,69,1.72,CN,1676524994
28,leningradskiy,69.3833,178.4167,-34.4,98,99,3.28,RU,1676524995
29,arcachon,44.5875,-1.0519,5.18,93,100,0.0,FR,1676524995
30,quatre cocos,-20.2078,57.7625,28.38,70,12,3.44,MU,1676524995
31,longyearbyen,78.2186,15.6401,-3.09,80,40,11.83,SJ,1676524960
32,pisco,-13.7,-76.2167,23.03,88,20,1.54,PE,1676524996
33,caravelas,-17.7125,-39.2481,25.13,84,68,3.15,BR,1676524947
34,hobart,-42.8794,147.3294,23.92,59,75,3.6,AU,1676524628
35,ponta delgada,37.7333,-25.6667,13.4,71,75,3.09,PT,1676524997
36,albany,42.6001,-73.9662,13.18,65,3,2.7,US,1676524770
37,kysyl-syr,63.8986,122.7617,-25.34,96,100,2.16,RU,1676524991
38,manoel urbano,-8.8389,-69.2597,22.63,99,100,1.07,BR,1676524998
39,kursenai,55.985,22.9189,0.14,92,100,3.18,LT,1676524999
40,port elizabeth,-33.918,25.5701,21.16,83,20,1.54,ZA,1676524925
41,hermanus,-34.4187,19.2345,17.67,86,68,8.58,ZA,1676524896
42,necochea,-38.5473,-58.7368,15.34,72,43,4.27,AR,1676524961
43,butaritari,3.0707,172.7902,27.5,78,71,5.85,KI,1676524933
44,kodiak,57.79,-152.4072,-7.27,53,0,3.6,US,1676524897
45,batemans bay,-35.7167,150.1833,25.05,54,91,4.1,AU,1676525001
46,mantes-la-jolie,49.0,1.6667,7.0,93,51,2.9,FR,1676524673
47,boke,10.9409,-14.2967,21.46,85,93,1.53,GN,1676525001
48,nanortalik,60.1432,-45.2371,-4.37,91,100,2.71,GL,1676525002
49,shumikhinskiy,58.7448,57.6905,-17.43,94,72,1.52,RU,1676525002
50,statesboro,32.4488,-81.7832,15.82,94,0,0.0,US,1676525003
51,khatanga,71.9667,102.5,-14.67,95,100,5.32,RU,1676524910
52,sorland,67.667,12.6934,6.92,90,100,16.92,NO,1676525004
53,beisfjord,68.3751,17.5988,3.03,81,99,4.43,NO,1676525004
54,shingu,33.7333,135.9833,8.55,49,3,2.53,JP,1676524973
55,atar,20.5169,-13.0499,20.53,26,3,4.11,MR,1676524986
56,naze,28.3667,129.4833,15.51,65,87,5.19,JP,1676524993
57,basoko,1.2391,23.616,20.11,51,98,0.53,CD,1676525005
58,blagoyevo,63.3667,47.9167,-23.11,100,100,1.42,RU,1676525006
59,puerto ayora,-0.7393,-90.3518,25.86,91,13,1.06,EC,1676524905
60,jamestown,42.097,-79.2353,7.79,73,0,6.17,US,1676524929
61,faanui,-16.4833,-151.75,27.85,74,43,5.11,PF,1676525006
62,saint-philippe,-21.3585,55.7679,27.77,75,64,3.36,RE,1676524909
63,farkhor,37.4922,69.4036,15.22,60,100,2.6,TJ,1676525007
64,babai,22.7,77.9333,27.86,17,0,1.32,IN,1676524940
65,neuquen,-38.9516,-68.0591,17.94,52,0,4.63,AR,1676525008
66,avarua,-21.2078,-159.775,28.03,78,20,1.54,CK,1676524965
67,vaini,-21.2,-175.2,26.09,94,100,1.54,TO,1676525009
68,hilo,19.7297,-155.09,22.38,92,40,0.89,US,1676524899
69,kavieng,-2.5744,150.7967,26.56,85,100,9.86,PG,1676525009
70,yellowknife,62.456,-114.3525,-31.36,68,20,1.54,CA,1676524953
71,ostrovnoy,68.0531,39.5131,0.62,85,94,12.07,RU,1676525010
72,marsabit,2.3284,37.9899,18.59,73,82,6.71,KE,1676525010
73,aswan,24.0934,32.907,8.61,53,0,2.06,EG,1676525011
74,tazovskiy,67.4667,78.7,-14.19,93,100,7.01,RU,1676525011
75,vao,-22.6667,167.4833,24.1,63,73,5.27,NC,1676524904
76,port-gentil,-0.7193,8.7815,25.98,94,75,0.51,GA,1676525012
77,kadaya,50.9327,119.2911,-14.79,91,100,0.87,RU,1676525013
78,bredasdorp,-34.5322,20.0403,18.77,90,78,8.36,ZA,1676524915
79,cidreira,-30.1811,-50.2056,23.18,90,46,1.96,BR,1676525013
80,baykit,61.67,96.37,-17.3,98,99,1.16,RU,1676525014
81,tiksi,71.6872,128.8694,-24.78,97,100,3.01,RU,1676524918
82,torbay,47.6666,-52.7314,-4.29,91,0,8.23,CA,1676524959
83,guilin,25.2819,110.2864,15.06,51,97,0.54,CN,1676525014
84,aktau,43.65,51.2,1.32,82,100,10.24,KZ,1676525015
85,bluff,-46.6,168.3333,14.89,65,60,4.11,NZ,1676524429
86,asosa,10.0667,34.5333,15.9,23,61,3.3,ET,1676525015
87,saint anthony,45.0205,-93.218,-7.22,77,0,5.14,US,1676525016
88,klaksvik,62.2266,-6.589,5.51,70,22,12.33,FO,1676524959
89,rudnichnyy,59.617,52.4703,-21.97,100,86,1.53,RU,1676525017
90,east london,-33.0153,27.9116,21.52,88,100,1.03,ZA,1676524932
91,severo-kurilsk,50.6789,156.125,-2.52,74,96,11.52,RU,1676525017
92,castro,-24.7911,-50.0119,17.2,98,100,1.18,BR,1676524937
93,fortuna,40.5982,-124.1573,2.59,92,0,0.0,US,1676524970
94,fryanovo,56.1333,38.45,-17.27,100,84,2.35,RU,1676525018
95,namibe,-15.1961,12.1522,22.41,83,71,0.77,AO,1676525019
96,arcos de la frontera,36.7508,-5.8106,8.37,74,10,1.43,ES,1676525019
97,dzhebariki-khaya,62.2167,135.8,-32.59,90,62,0.33,RU,1676525019
98,krasnoselkup,65.7,82.4667,-16.04,95,99,4.92,RU,1676525020
99,chiang rai,19.9167,99.9167,30.72,61,20,1.03,TH,1676524937
100,ouadda,8.0777,22.4007,17.82,24,19,3.8,CF,1676525020
101,punta arenas,-53.15,-70.9167,4.06,65,0,6.69,CL,1676524928
102,santiago,-33.4569,-70.6483,22.36,44,0,5.14,CL,1676525006
103,hambantota,6.1241,81.1185,28.41,54,29,7.6,LK,1676525021
104,ribeira grande,38.5167,-28.7,15.43,77,92,7.15,PT,1676524904
105,lagoa,39.05,-27.9833,14.45,72,91,4.48,PT,1676525022
106,fort wellington,6.4,-57.6,24.48,88,100,4.32,GY,1676525022
107,ipinda,-9.4833,33.9,22.74,86,100,0.74,TZ,1676525023
108,saldanha,-33.0117,17.9442,18.03,88,0,3.36,ZA,1676524962
109,rayong,12.8333,101.4333,32.57,44,68,5.64,TH,1676524916
110,puerto rondon,6.2805,-71.1,25.23,75,94,2.44,CO,1676525023
111,bohdan,48.0412,24.3522,-3.49,95,82,0.56,UA,1676525024
112,enshi,30.3,109.4833,8.35,75,99,0.53,CN,1676525024
113,esperance,-33.8667,121.9,23.96,50,54,4.22,AU,1676525022
114,cape town,-33.9258,18.4232,21.23,77,20,10.29,ZA,1676524541
115,san patricio,28.017,-97.5169,22.97,94,70,6.24,US,1676525024
116,harbour breton,47.4833,-55.7983,-0.99,77,86,6.17,CA,1676525025
117,xuanzhou,30.9525,118.7553,11.4,42,0,3.31,CN,1676525026
118,bethel,41.3712,-73.414,15.05,61,0,5.14,US,1676524828
119,mayo,38.8876,-76.5119,16.97,60,0,4.12,US,1676525026
120,olafsvik,64.8945,-23.7142,2.96,73,74,7.21,IS,1676525027
121,davila,18.4726,120.5763,29.99,74,39,13.12,PH,1676524961
122,los llanos de aridane,28.6585,-17.9182,10.86,71,75,3.09,ES,1676525027
123,bambous virieux,-20.3428,57.7575,28.45,69,75,2.57,MU,1676524990
124,kamenka,51.3223,42.7678,-13.84,97,89,2.94,RU,1676525028
125,kasangulu,-4.5911,15.1708,23.49,97,86,1.6,CD,1676525028
126,clyde river,70.4692,-68.5914,-30.87,76,100,8.75,CA,1676524910
127,gorin,51.1983,136.6669,-14.79,81,80,2.88,RU,1676525029
128,drayton valley,53.2168,-114.9854,-6.22,90,99,2.13,CA,1676525029
129,mercedes,-34.6515,-59.4307,22.1,33,47,2.96,AR,1676525030
130,dalbandin,28.8947,64.4101,23.58,11,6,2.9,PK,1676524974
131,mbuguni,-3.5667,36.95,21.45,77,55,2.6,TZ,1676525030
132,nalut,30.3333,10.85,6.63,62,29,4.67,LY,1676525031
133,ampanihy,-24.7,44.75,26.13,60,1,2.85,MG,1676525031
134,broken hill,-31.95,141.4333,37.57,13,0,4.93,AU,1676524933
135,upernavik,72.7868,-56.1549,-25.31,77,100,4.68,GL,1676524928
136,kruisfontein,-34.0033,24.7314,19.38,85,84,3.54,ZA,1676525032
137,zaragoza,41.6561,-0.8773,4.45,84,0,0.51,ES,1676525005
138,jumla,29.2747,82.1838,16.54,16,0,2.34,NP,1676525033
139,rio gallegos,-51.6226,-69.2181,4.03,65,0,10.8,AR,1676525033
140,kavaratti,10.5669,72.642,26.83,71,27,2.08,IN,1676524763
141,hithadhoo,-0.6,73.0833,27.26,78,47,5.6,MV,1676524930
142,kindu,-2.95,25.95,20.87,99,98,0.68,CD,1676525034
143,guna,24.65,77.3167,26.2,19,0,2.77,IN,1676525034
144,luderitz,-26.6481,15.1594,17.12,81,0,7.7,NA,1676525027
145,pedasi,7.5333,-80.0333,24.48,85,7,7.31,PA,1676525035
146,eyl,7.9803,49.8164,25.82,59,73,8.18,SO,1676524896
147,mareeba,-17.0,145.4333,24.69,97,100,2.79,AU,1676525035
148,bilibino,68.0546,166.4372,-34.9,98,18,1.07,RU,1676525036
149,santa ana,33.7456,-117.8678,11.89,51,0,2.06,US,1676525036
150,hobyo,5.3505,48.5268,26.64,57,84,8.34,SO,1676525036
151,dmitriyevskaya,45.6564,40.7653,-5.49,95,40,2.18,RU,1676525037
152,kapoeta,4.7717,33.5903,26.7,25,49,1.38,SS,1676525037
153,abu dhabi,24.4667,54.3667,24.06,29,0,3.09,AE,1676524450
154,hun,29.1268,15.9477,8.43,67,26,0.72,LY,1676525038
155,bolu,40.6667,31.5833,-6.72,94,79,0.59,TR,1676525038
156,oriximina,-1.7656,-55.8661,23.28,96,99,0.87,BR,1676524832
157,cayenne,4.9333,-52.3333,24.02,100,75,0.0,GF,1676524989
158,inhambane,-23.865,35.3833,27.12,78,1,3.81,MZ,1676525015
159,zhanaozen,43.3,52.8,0.06,92,75,7.54,KZ,1676525039
160,jingdezhen,29.2947,117.2079,13.72,48,6,0.84,CN,1676525039
161,lompoc,34.6391,-120.4579,7.19,75,0,3.6,US,1676524763
162,tekeli,44.83,78.8239,-1.36,76,90,1.66,KZ,1676525040
163,bengkulu,-3.8004,102.2655,28.71,63,92,2.87,ID,1676525040
164,superior,46.7208,-92.1041,-8.95,77,0,4.63,US,1676525041
165,lorengau,-2.0226,147.2712,25.28,90,100,6.03,PG,1676524942
166,orbetello,42.4408,11.2196,6.01,78,15,1.65,IT,1676525041
167,mackay,-21.15,149.2,27.05,79,100,4.49,AU,1676525042
168,garden city,42.3256,-83.331,5.5,74,100,6.69,US,1676524844
169,tuatapere,-46.1333,167.6833,18.12,62,44,3.64,NZ,1676524941
170,sergeyevka,53.88,67.4158,-16.38,90,34,1.96,KZ,1676525043
171,tres arroyos,-38.3739,-60.2798,12.66,82,51,2.73,AR,1676525044
172,mount gambier,-37.8333,140.7667,35.14,14,86,4.53,AU,1676524900
173,severnyy,50.677,36.5532,-4.98,86,100,4.0,RU,1676525044
174,tuktoyaktuk,69.4541,-133.0374,-35.0,75,0,4.63,CA,1676524934
175,negri,46.7,26.9667,-0.88,86,20,1.47,RO,1676525045
176,geraldton,-28.7667,114.6,26.23,53,40,7.72,AU,1676524761
177,chuy,-33.6971,-53.4616,18.44,72,0,3.15,UY,1676525012
178,youhao,47.8667,128.8333,-5.54,53,93,2.04,CN,1676525046
179,newport,51.5877,-2.9984,9.27,94,100,6.27,GB,1676524793
180,mashhad,36.297,59.6062,6.08,93,100,0.0,IR,1676525047
181,acapulco,16.8634,-99.8901,26.9,69,75,2.57,MX,1676524808
182,atuona,-9.8,-139.0333,25.95,75,81,6.13,PF,1676524917
183,tura,25.5198,90.2201,26.83,20,0,0.58,IN,1676525048
184,oktyabrskoye,43.0645,44.7417,-5.92,100,100,5.0,RU,1676525049
185,kawalu,-7.3817,108.2082,28.48,68,100,0.71,ID,1676524981
186,saquena,-4.6667,-73.5167,22.59,99,100,1.79,PE,1676525050
187,coquimbo,-29.9533,-71.3436,15.85,94,0,1.03,CL,1676524997
188,taoudenni,22.6783,-3.9836,21.32,22,89,3.75,ML,1676525026
189,guerrero negro,27.9769,-114.0611,13.57,53,100,2.68,MX,1676525051
190,thompson,55.7435,-97.8558,-30.91,76,0,1.54,CA,1676524898
191,pangai,-19.8,-174.35,26.06,83,75,2.57,TO,1676525051
192,saskylakh,71.9167,114.0833,-17.56,97,100,3.12,RU,1676524912
193,sharan,54.8167,54.0,-8.53,94,92,5.38,RU,1676525052
194,chalala,21.4167,71.1667,30.0,16,1,3.23,IN,1676525053
195,kargasok,59.0556,80.8572,-14.68,95,99,2.36,RU,1676525053
196,aktash,50.3,87.7333,-15.24,82,97,0.94,RU,1676525054
197,zyryanka,65.75,150.85,-32.7,94,99,1.34,RU,1676525055
198,aklavik,68.2191,-135.0107,-35.49,100,19,0.67,CA,1676525004
199,luena,-11.7833,19.9167,17.38,94,100,3.35,AO,1676525056
200,katsuura,35.1333,140.3,6.81,52,49,3.95,JP,1676524967
201,karratha,-20.7377,116.8463,39.39,25,17,5.67,AU,1676525056
202,rio grande,-32.035,-52.0986,22.15,74,0,5.09,BR,1676525057
203,minsk,53.9,27.5667,-2.14,98,100,0.62,BY,1676524757
204,te anau,-45.4167,167.7167,21.98,41,44,2.28,NZ,1676525000
205,cabanas,22.9758,-82.9219,20.76,85,0,3.77,CU,1676525058
206,shubarshi,48.5872,57.1869,-6.55,91,100,6.39,KZ,1676525059
207,tasiilaq,65.6145,-37.6368,-5.91,94,96,3.58,GL,1676524948
208,chokurdakh,70.6333,147.9167,-35.38,99,94,0.67,RU,1676524977
209,balakhta,55.38,91.6,-18.59,98,99,0.55,RU,1676525059
210,ponta do sol,32.6667,-17.1,15.35,54,39,3.73,PT,1676524939
211,santa isabel do rio negro,-0.4139,-65.0192,23.31,96,100,0.32,BR,1676525060
212,nome,64.5011,-165.4064,-27.96,76,0,0.0,US,1676525061
213,qaanaaq,77.484,-69.3632,-28.61,65,22,3.69,GL,1676524912
214,airai,-8.9266,125.4092,20.47,82,96,1.64,TL,1676524898
215,vardo,70.3705,31.1107,-1.01,86,100,12.86,NO,1676524962
216,maraa,-1.8333,-65.3667,23.2,98,100,0.9,BR,1676525062
217,fare,-16.7,-151.0167,27.63,74,14,4.82,PF,1676524993
218,lebu,-37.6167,-73.65,13.56,83,8,9.52,CL,1676524911
219,narsaq,60.9167,-46.05,-16.88,76,100,3.57,GL,1676524945
220,nikolskoye,59.7035,30.7861,-0.05,96,100,3.04,RU,1676524921
221,honiara,-9.4333,159.95,29.4,75,99,1.57,SB,1676524927
222,dikson,73.5069,80.5464,-16.42,94,100,10.94,RU,1676524892
223,medea,36.2642,2.7539,3.58,74,22,2.99,DZ,1676525063
224,noumea,-22.2763,166.4572,27.99,60,74,5.34,NC,1676525064
225,carnarvon,-24.8667,113.6333,26.48,55,0,8.28,AU,1676524968
226,shihezi,44.3,86.0333,-6.73,90,100,2.3,CN,1676525066
227,alofi,-19.0595,-169.9187,25.94,89,100,4.12,NU,1676525067
228,kapaa,22.0752,-159.319,21.99,89,40,2.57,US,1676524797
229,mahebourg,-20.4081,57.7,28.47,69,75,2.57,MU,1676524985
230,sambava,-14.2667,50.1667,25.63,82,13,2.12,MG,1676524924
231,tabou,4.423,-7.3528,26.01,86,86,2.01,CI,1676525068
232,hirado,33.3597,129.5531,8.13,56,20,2.89,JP,1676525068
233,nabire,-3.3667,135.4833,27.73,77,100,0.44,ID,1676524971
234,cherskiy,68.75,161.3,-41.31,100,62,1.85,RU,1676525063
235,henties bay,-22.116,14.2845,17.94,82,93,2.44,NA,1676524957
236,quelimane,-17.8786,36.8883,24.97,88,75,4.12,MZ,1676525070
237,turukhansk,65.8167,87.9833,-14.57,94,100,5.17,RU,1676525071
238,salalah,17.0151,54.0924,24.05,73,0,1.54,OM,1676525072
239,ust-omchug,61.15,149.6333,-24.4,91,100,3.02,RU,1676524795
240,vizinga,61.0749,50.1031,-20.52,100,100,1.06,RU,1676525072
241,pevek,69.7008,170.3133,-40.74,98,74,2.08,RU,1676524982
242,seminole,28.7086,-81.2081,20.77,87,0,2.06,US,1676524816
243,petrolia,42.8668,-82.1498,5.01,70,100,4.12,CA,1676525073
244,aranos,-24.1333,19.1167,21.6,38,88,2.59,NA,1676525073
245,burns lake,54.2331,-125.7533,-1.32,97,96,1.98,CA,1676525074
246,saint-francois,46.4154,3.9054,-4.31,93,0,1.03,FR,1676525074
247,parfino,57.9731,31.6481,-8.45,95,95,2.59,RU,1676525075
248,malangali,-8.5667,34.85,18.66,91,100,0.84,TZ,1676525075
249,southbridge,42.0751,-72.0334,14.06,76,8,0.45,US,1676525000
250,carlsbad,33.1581,-117.3506,11.21,64,0,2.06,US,1676525076
251,saint-pierre,-21.3393,55.4781,28.09,57,0,5.66,RE,1676525076
252,rawson,-43.3002,-65.1023,9.28,64,100,8.19,AR,1676525077
253,genhe,50.7833,121.5167,-9.18,84,100,1.6,CN,1676525077
254,portland,45.5234,-122.6762,3.1,87,0,0.89,US,1676525008
255,mount isa,-20.7333,139.5,29.87,45,100,8.23,AU,1676524952
256,vama,47.5667,25.6833,-2.91,90,58,2.4,RO,1676525078
257,roma,43.2128,-75.4557,12.63,67,0,6.69,US,1676524585
258,san angelo,31.4638,-100.437,11.17,34,0,6.17,US,1676525078
259,outram,1.2829,103.8379,31.07,63,75,7.2,MY,1676525079
260,galle,6.0367,80.217,27.89,54,40,3.06,LK,1676525079
261,birin,26.8865,88.0718,18.31,32,69,2.79,NP,1676525080
262,calbuco,-41.768,-73.1273,8.56,69,53,9.0,CL,1676525080
263,vila franca do campo,37.7167,-25.4333,13.23,81,22,1.73,PT,1676524997
264,egvekinot,66.3167,-179.1667,-31.35,88,12,3.54,RU,1676524922
265,pangoa,-12.1167,-73.0,20.09,99,95,0.82,PE,1676524992
266,wahpeton,46.2652,-96.6059,-16.6,92,0,0.0,US,1676525081
267,laela,-8.5667,32.05,16.52,93,100,1.3,TZ,1676525081
268,ovruch,51.3246,28.8035,-1.58,76,67,1.8,UA,1676525082
269,kozhva,65.1073,57.0459,-13.3,93,100,3.53,RU,1676525082
270,provideniya,64.3833,-173.3,-25.36,64,40,7.15,RU,1676524985
271,hualmay,-11.0964,-77.6139,23.54,82,100,1.69,PE,1676524969
272,victor harbor,-35.5667,138.6167,38.16,20,29,4.67,AU,1676525083
273,port hardy,50.6996,-127.4199,4.1,87,100,11.32,CA,1676525050
274,pacific grove,36.6177,-121.9166,5.91,75,0,3.09,US,1676525074
275,homer,59.6425,-151.5483,-4.0,77,75,7.15,US,1676525083
276,meulaboh,4.1363,96.1285,28.43,70,99,1.79,ID,1676524725
277,columbus,39.9612,-82.9988,12.95,72,20,2.57,US,1676524464
278,cabo san lucas,22.8909,-109.9124,19.17,76,100,2.54,MX,1676525084
279,thinadhoo,0.5333,72.9333,27.7,68,39,5.21,MV,1676525085
280,solnechnyy,50.7214,136.6319,-14.49,87,72,2.34,RU,1676524926
281,souillac,-20.5167,57.5167,27.21,69,75,2.57,MU,1676524899
282,badiraguato,25.3667,-107.5167,11.5,47,88,1.75,MX,1676525085
283,bitung,1.4451,125.1824,30.47,70,100,5.39,ID,1676525086
284,san jeronimo,-11.9472,-75.2829,10.83,85,100,0.58,PE,1676525086
285,hasaki,35.7333,140.8333,7.34,50,28,4.99,JP,1676524892
286,iqaluit,63.7506,-68.5145,-32.95,67,0,3.6,CA,1676524909
287,vagur,61.4732,-6.8119,5.88,69,72,13.24,FO,1676525087
288,axim,4.8699,-2.2405,25.64,89,63,2.11,GH,1676524966
289,wasilla,61.5814,-149.4394,-4.47,86,0,2.57,US,1676524937
290,ahipara,-35.1667,173.1667,20.29,77,25,3.58,NZ,1676525088
291,reading,51.4562,-0.9711,8.51,84,100,7.2,GB,1676525088
292,agirish,61.9247,63.0231,-15.48,98,100,2.82,RU,1676525088
293,ulaangom,49.9811,92.0667,-23.64,95,96,1.47,MN,1676525089
294,port shepstone,-30.7414,30.455,24.55,84,100,6.8,ZA,1676524910
295,iroquois falls,48.7669,-80.6831,-16.63,91,100,5.16,CA,1676525089
296,hasilpur,29.7122,72.5553,26.74,13,91,1.0,PK,1676525090
297,byron bay,-28.65,153.6167,27.75,54,1,4.25,AU,1676524884
298,kahramanmaras,38.0,37.0,-10.14,99,97,1.54,TR,1676525090
299,okhotsk,59.3833,143.3,-18.58,75,100,7.0,RU,1676525062
300,harper,4.375,-7.7169,26.36,83,78,2.13,LR,1676525091
301,hovd,48.0056,91.6419,-14.27,83,51,1.81,MN,1676525091
302,balabac,7.9868,117.0645,26.68,82,100,8.84,PH,1676525092
303,margate,51.3813,1.3862,8.72,89,100,0.89,GB,1676524947
304,churapcha,62.0025,132.4325,-30.06,88,67,0.97,RU,1676525092
305,oktyabrskiy,54.4815,53.471,-8.08,96,99,1.9,RU,1676525093
306,san cristobal,7.7669,-72.225,20.1,93,89,0.43,VE,1676525036
307,baghdad,33.3406,44.4009,7.95,71,20,3.09,IQ,1676525093
308,yar-sale,66.8333,70.8333,-8.59,86,100,11.67,RU,1676524930
309,ewa beach,21.3156,-158.0072,23.97,71,0,2.57,US,1676525094
310,talnakh,69.4865,88.3972,-15.4,95,100,5.64,RU,1676525017
311,vinh,18.6667,105.6667,17.27,81,100,4.27,VN,1676524841
312,ozinki,51.1786,49.6769,-13.94,97,100,1.41,RU,1676525095
313,havre-saint-pierre,50.2334,-63.5986,-1.0,93,100,3.09,CA,1676524938
314,lavrentiya,65.5833,-171.0,-31.86,95,14,2.36,RU,1676524905
315,buala,-8.145,159.5921,29.81,69,100,1.53,SB,1676525095
316,mindelo,16.8901,-24.9804,19.75,64,40,9.77,CV,1676525096
317,barra do corda,-5.5,-45.25,22.35,95,100,1.13,BR,1676525096
318,porbandar,21.6422,69.6093,24.99,31,2,0.0,IN,1676525096
319,evensk,61.95,159.2333,-13.13,78,100,5.36,RU,1676525027
320,shebunino,46.4339,141.8603,-5.8,59,100,5.19,RU,1676525097
321,dali,25.7,100.1833,18.8,21,0,4.91,CN,1676524596
322,daru,-9.0763,143.2092,30.58,63,99,6.13,PG,1676525002
323,marfino,55.7028,37.3822,-5.03,86,100,3.0,RU,1676525098
324,sala consilina,40.3912,15.5989,0.77,79,0,0.65,IT,1676525098
325,codrington,-38.2667,141.9667,30.44,28,99,4.78,AU,1676525008
326,beloha,-25.1667,45.05,26.95,57,0,3.06,MG,1676525099
327,ibra,22.6906,58.5334,25.58,15,1,0.54,OM,1676525099
328,goderich,43.7501,-81.7165,3.18,87,100,4.63,CA,1676525099
329,le port,-20.9373,55.2919,28.27,82,27,0.7,RE,1676525100
330,north bend,43.4065,-124.2243,4.92,96,0,4.12,US,1676525100
331,san juan del parana,-27.3,-55.9667,25.03,83,0,2.06,PY,1676525101
332,sorong,-0.8833,131.25,28.5,71,81,3.33,ID,1676525101
333,conde,-7.2597,-34.9075,26.7,83,40,2.57,BR,1676525054
334,jieshi,22.8134,115.8257,16.4,53,45,7.74,CN,1676525102
335,victoria,22.2855,114.1577,18.35,52,15,4.47,HK,1676524797
336,buritizeiro,-17.3511,-44.9622,22.13,74,77,0.13,BR,1676525103
337,bani,18.2833,-70.3333,23.25,80,2,5.69,DO,1676525104
338,lagoa santa,-19.6272,-43.8897,20.54,83,0,3.6,BR,1676525104
339,alta floresta,-9.8756,-56.0861,21.71,98,100,1.28,BR,1676524978
340,amga,60.8953,131.9608,-27.27,91,81,0.06,RU,1676525085
341,waingapu,-9.6567,120.2641,29.47,71,100,5.39,ID,1676525007
342,coahuayana,18.7333,-103.6833,19.57,79,1,1.68,MX,1676525103
343,zhigansk,66.7697,123.3711,-31.84,96,100,5.18,RU,1676525106
344,general pico,-35.6566,-63.7568,18.93,32,27,2.81,AR,1676525106
345,ferrol,43.4832,-8.2369,10.75,84,89,1.69,ES,1676524884
346,bambanglipuro,-7.95,110.2833,28.4,73,96,5.31,ID,1676525107
347,ypsonas,34.6884,32.9574,9.6,61,0,1.03,CY,1676525107
348,vanimo,-2.6741,141.3028,28.8,69,98,0.25,PG,1676525108
349,port-cartier,50.0334,-66.8654,-1.88,98,100,2.72,CA,1676525109
350,nago,26.5881,127.9761,20.47,66,52,6.07,JP,1676525109
351,constitucion,-35.3333,-72.4167,15.54,75,0,5.1,CL,1676524919
352,pitimbu,-7.4706,-34.8086,27.33,82,91,3.97,BR,1676525016
353,najran,17.4924,44.1277,21.36,33,10,0.98,SA,1676525111
354,chapais,49.7834,-74.8492,1.88,98,100,5.39,CA,1676525090
355,itarema,-2.9248,-39.9167,25.04,88,96,3.38,BR,1676525112
356,kaitangata,-46.2817,169.8464,15.59,68,99,3.47,NZ,1676524936
357,marathon,44.9,-89.7668,-1.42,76,100,3.09,US,1676525112
358,raga,8.4596,25.678,17.39,23,8,3.5,SS,1676525113
359,springbok,-29.6643,17.8865,13.04,83,40,0.48,ZA,1676525113
360,magadan,59.5667,150.8,-12.48,76,100,3.28,RU,1676524804
361,ranfurly,-45.1333,170.1,19.5,54,48,4.09,NZ,1676525114
362,dunedin,-45.8742,170.5036,14.89,76,87,3.58,NZ,1676525115
363,college,64.8569,-147.8028,-18.22,71,20,1.54,US,1676525061
364,coihaique,-45.5752,-72.0662,5.97,61,0,1.54,CL,1676525116
365,fasa,28.9383,53.6482,13.58,35,40,0.0,IR,1676525116
366,puerto maldonado,-12.6,-69.1833,22.02,98,100,1.39,PE,1676525117
367,sarkand,45.41,79.9186,-3.33,78,65,1.26,KZ,1676525117
368,esterhazy,50.65,-102.0843,-20.53,100,49,2.26,CA,1676525118
369,magelang,-7.4706,110.2178,27.07,78,99,1.34,ID,1676525119
370,cedar city,37.6775,-113.0619,-9.22,72,0,2.06,US,1676524884
371,corvallis,44.5646,-123.262,2.27,92,0,0.0,US,1676525036
372,misawa,40.6836,141.3597,-0.22,69,94,6.18,JP,1676525120
373,rovaniemi,66.5,25.7167,-2.33,100,75,7.2,FI,1676525121
374,arona,28.0996,-16.681,12.12,66,20,4.12,ES,1676525121
375,audru,58.4086,24.3739,1.09,100,100,4.63,EE,1676525122
376,mar del plata,-38.0023,-57.5575,17.83,72,0,5.14,AR,1676524993
377,sao felix do xingu,-6.6447,-51.995,21.78,99,99,0.34,BR,1676525022
378,maniitsoq,65.4167,-52.9,-8.17,94,100,4.08,GL,1676525123
379,verkhoyansk,67.5447,133.385,-37.39,94,62,0.61,RU,1676525123
380,komadi,47.0,21.5,-1.69,89,19,2.16,HU,1676525124
381,tual,-5.6667,132.75,27.88,78,100,7.48,ID,1676525124
382,moose factory,51.2585,-80.6094,-20.0,71,75,6.17,CA,1676525125
383,clermont,49.5,2.4167,6.12,94,72,3.59,FR,1676525126
384,nizwa,22.9333,57.5333,25.35,14,28,0.88,OM,1676525126
385,rocha,-34.4833,-54.3333,16.0,69,0,3.62,UY,1676525107
386,pangnirtung,66.1451,-65.7125,-31.14,100,100,0.4,CA,1676525127
387,kumano,34.3442,132.5894,6.51,47,5,1.37,JP,1676525127
388,pringsewu,-5.3582,104.9744,25.67,80,97,0.85,ID,1676525128
389,lins,-21.6786,-49.7425,21.26,94,100,2.79,BR,1676525129
390,ulladulla,-35.35,150.4667,26.52,55,92,5.75,AU,1676525129
391,nara,34.6851,135.8049,5.83,38,87,3.19,JP,1676525130
392,espanola,35.9911,-106.0806,-5.01,76,71,0.87,US,1676525130
393,pierre,44.3683,-100.351,-8.18,67,0,2.57,US,1676525131
394,shimoda,34.6667,138.95,7.2,63,95,3.01,JP,1676524972
395,marsh harbour,26.5412,-77.0636,22.97,66,50,7.67,BS,1676525132
396,abramovka,51.1886,41.0202,-13.48,97,86,2.98,RU,1676525132
397,dingle,10.9995,122.6711,27.35,75,40,8.7,PH,1676524979
398,touros,-5.1989,-35.4608,26.32,81,100,4.94,BR,1676524931
399,santa maria,-29.6842,-53.8069,20.75,90,1,2.69,BR,1676524989
400,alice springs,-23.7,133.8833,37.75,9,1,5.14,AU,1676524836
401,bereda,43.2686,-7.5406,4.67,96,92,0.29,ES,1676525134
402,balikpapan,-1.2675,116.8289,27.55,69,20,2.06,ID,1676524903
403,shuyskoye,59.3736,41.0305,-22.52,100,100,1.51,RU,1676525134
404,kieta,-6.2167,155.6333,29.08,73,73,1.86,PG,1676525135
405,sao filipe,14.8961,-24.4956,20.61,74,0,6.84,CV,1676525085
406,umm kaddadah,13.6017,26.6876,12.61,28,0,9.07,SD,1676525136
407,bonthe,7.5264,-12.505,24.08,95,92,2.04,SL,1676525136
408,lata,40.1629,-8.3327,5.04,79,3,1.71,PT,1676525077
409,narragansett,41.4501,-71.4495,13.88,75,0,5.36,US,1676525137
410,hobro,56.6431,9.7903,6.2,97,92,3.59,DK,1676525137
411,dubbo,-32.25,148.6167,34.07,22,40,2.06,AU,1676525138
412,quarai,-30.3875,-56.4514,23.81,58,0,1.95,BR,1676525138
413,puerto baquerizo moreno,-0.9,-89.6,26.27,80,13,1.72,EC,1676525139
414,alekseyevka,50.6309,38.6903,-12.85,98,85,2.26,RU,1676525139
415,lukiv,51.0521,25.4006,-1.01,72,100,2.32,UA,1676525139
416,opotiki,-38.0833,177.2833,18.55,90,96,0.77,NZ,1676525140
417,hornepayne,49.2138,-84.7705,-20.28,95,100,2.98,CA,1676525141
418,boromo,11.75,-2.9333,21.84,18,1,4.72,BF,1676525141
419,nouadhibou,20.931,-17.0347,14.99,77,0,10.29,MR,1676525025
420,tefe,-3.3542,-64.7114,22.67,99,97,0.7,BR,1676524964
421,chernyshevskiy,63.0128,112.4714,-17.02,89,85,2.61,RU,1676525142
422,pokhara,28.2333,83.9833,22.36,25,0,2.93,NP,1676524864
423,ogdensburg,44.6942,-75.4863,7.47,65,100,3.6,US,1676525142
424,rawah,34.4816,41.9093,5.0,52,0,3.4,IQ,1676525143
425,pershotravneve,51.3929,28.8684,-1.66,76,75,1.76,UA,1676525143
426,magistralnyy,56.1725,107.4458,-14.28,88,79,0.91,RU,1676525144
427,prince rupert,54.3161,-130.3201,1.83,100,100,3.6,CA,1676525144
428,karpathos,35.507,27.2132,7.98,66,4,2.57,GR,1676525145
429,yaan,7.3833,8.5667,24.47,21,77,4.92,NG,1676525145
430,paamiut,61.994,-49.6678,-3.51,95,100,9.85,GL,1676524927
431,lillooet,50.6856,-121.942,-0.72,92,100,1.8,CA,1676525146
432,kokopo,-4.352,152.2633,29.57,64,99,1.43,PG,1676524973
433,malakal,9.5334,31.6605,21.43,17,93,5.47,SS,1676525146
434,saint george,37.1041,-113.5841,1.64,42,0,2.57,US,1676524733
435,dwarka,22.2394,68.9678,25.41,53,6,3.59,IN,1676525147
436,presidencia roque saenz pena,-26.7852,-60.4388,27.35,67,14,4.49,AR,1676525148
437,vrangel,42.7297,133.0839,-2.16,59,56,4.41,RU,1676525034
438,cabra,37.4725,-4.4421,9.73,74,89,1.4,ES,1676525148
439,buta,2.7858,24.73,18.75,43,63,0.5,CD,1676525149
440,zambezi,-13.5432,23.1047,18.48,97,99,2.52,ZM,1676525149
441,soyo,-6.1349,12.3689,25.6,83,95,1.28,AO,1676525150
442,bathsheba,13.2167,-59.5167,25.34,73,40,9.26,BB,1676524914
443,digby,44.6169,-65.7655,6.44,95,85,9.45,CA,1676525150
444,la ronge,55.1001,-105.2842,-25.86,76,0,1.54,CA,1676525031
445,diplo,24.4667,69.584,29.01,25,39,3.14,PK,1676525052
446,paine,-33.8167,-70.75,23.38,60,2,0.54,CL,1676525151
447,sucre,-19.0333,-65.2627,13.08,84,100,1.67,BO,1676525152
448,mayumba,-3.432,10.6554,24.58,89,100,1.53,GA,1676525070
449,taltal,-25.4,-70.4833,19.38,84,2,0.46,CL,1676524821
450,avera,33.194,-82.5271,13.73,81,100,2.96,US,1676524956
451,koygorodok,60.445,50.9968,-14.83,100,88,1.29,RU,1676525152
452,santa rosalia,27.3167,-112.2833,10.85,55,100,3.7,MX,1676525153
453,kurumoch,53.4896,50.0375,-3.57,86,100,5.0,RU,1676525153
454,forbes,-33.3833,148.0167,36.62,16,7,2.43,AU,1676525154
455,vila praia de ancora,41.811,-8.8526,10.62,77,96,2.39,PT,1676525155
456,hami,42.8,93.45,2.59,33,90,1.87,CN,1676525155
457,antofagasta,-23.65,-70.4,20.6,81,1,0.66,CL,1676525155
458,fort abbas,29.1925,72.8536,27.02,14,76,1.18,PK,1676525156
459,merritt island,28.5392,-80.672,21.69,85,0,2.06,US,1676525117
460,russell,32.3502,-85.1999,19.6,72,75,2.57,US,1676525156
461,madaoua,14.073,5.96,15.39,24,13,7.47,NE,1676525156
462,broome,42.2506,-75.833,14.64,62,0,4.12,US,1676525080
463,mirnyy,62.5353,113.9611,-17.65,84,70,3.13,RU,1676525157
464,alugan,12.2188,125.4808,25.76,83,86,9.23,PH,1676525157
465,srivardhan,18.0333,73.0167,31.64,26,1,1.35,IN,1676525158
466,ankazoabo,-22.2833,44.5167,23.63,76,59,2.24,MG,1676524963
467,marawi,7.9986,124.2928,25.41,68,99,3.46,PH,1676524983
468,ilulissat,69.2167,-51.1,-9.99,48,100,9.26,GL,1676524919
469,catio,11.2833,-15.25,21.75,78,78,2.06,GW,1676525159
470,kudahuvadhoo,2.6708,72.8944,27.38,62,78,6.06,MV,1676525159
471,ipora,-16.4419,-51.1178,20.23,86,74,0.7,BR,1676525159
472,pathein,16.7833,94.7333,32.82,28,0,1.33,MM,1676525160
473,port augusta,-32.5,137.7667,40.51,7,0,4.11,AU,1676525160
474,mayaky,47.4408,29.5599,-2.68,64,46,1.67,UA,1676525160
475,chingola,-12.529,27.8838,17.1,97,100,2.34,ZM,1676525161
476,isangel,-19.55,169.2667,26.58,68,83,6.43,VU,1676524980
477,seoul,37.5683,126.9778,4.66,58,75,4.12,KR,1676525136
478,tiznit,29.5833,-9.5,8.67,84,64,2.01,MA,1676525162
479,waipawa,-41.4122,175.5153,13.01,90,100,6.34,NZ,1676524990
480,san ramon,37.7799,-121.978,8.61,59,0,2.06,US,1676525097
481,namie,37.4833,141.0,5.4,52,44,1.67,JP,1676525162
482,maragheh,37.3917,46.2398,-3.85,86,100,0.0,IR,1676525163
483,fairview,40.8126,-73.999,15.78,59,0,7.15,US,1676525164
484,marsa matruh,31.3525,27.2453,13.11,54,40,6.69,EG,1676524981
485,savalou,7.9281,1.9756,23.13,23,6,2.41,BJ,1676525165
486,warmbad,-28.45,18.7333,18.39,61,4,3.46,NA,1676524885
487,segezha,63.7415,34.3222,-4.15,92,98,5.21,RU,1676525165
488,carballo,43.213,-8.691,10.29,93,97,0.46,ES,1676524935
489,beringovskiy,63.05,179.3167,-23.51,95,100,6.23,RU,1676524895
490,biloela,-24.4167,150.5,32.51,29,100,4.14,AU,1676525166
491,kutum,14.2,24.6667,8.87,30,0,5.3,SD,1676525167
492,wajir,1.7471,40.0573,24.98,69,0,3.09,KE,1676525167
493,thiadiaye,14.4205,-16.7056,19.45,61,32,6.19,SN,1676525167
494,san joaquin,37.9333,-121.3011,6.8,57,0,2.06,US,1676524983
495,vallenar,-28.5708,-70.7581,19.54,68,0,1.16,CL,1676525014
496,kazachinskoye,57.6953,93.2761,-16.14,94,100,1.16,RU,1676525169
497,mapiripan,2.8892,-72.1256,22.16,97,57,1.59,CO,1676525169
498,kahului,20.8947,-156.47,24.91,71,40,7.2,US,1676524957
499,biak,-0.9131,122.8766,28.21,67,100,0.33,ID,1676525028
500,bud,39.447,-86.1758,10.1,82,90,2.85,US,1676525170
501,itoman,26.1247,127.6694,20.43,59,40,7.72,JP,1676524994
502,birobidzhan,48.8,132.95,-9.22,78,72,1.21,RU,1676525171
503,jalalabad,34.4265,70.4515,18.05,38,96,1.21,AF,1676525171
504,jalu,29.0331,21.5482,11.45,62,52,3.46,LY,1676525172
505,severodvinsk,64.5635,39.8302,-8.94,86,31,5.02,RU,1676525172
506,ransang,8.9603,117.5828,28.83,66,100,5.24,PH,1676525173
507,baoying,33.2292,119.3092,8.77,37,41,2.16,CN,1676525173
508,bago,17.3367,96.4797,32.84,35,0,2.87,MM,1676525015
509,starkville,33.4504,-88.8184,19.93,100,100,4.63,US,1676525174
510,nola,40.922,14.5329,11.63,89,1,0.72,IT,1676525174
511,vasudevanallur,9.2333,77.4167,27.24,42,36,3.85,IN,1676525175
512,neiafu,-18.65,-173.9833,27.38,89,75,3.09,TO,1676525175
513,whitehorse,60.7161,-135.0538,-6.57,93,100,4.12,CA,1676525176
514,jinka,5.65,36.65,22.38,28,48,0.85,ET,1676525176
515,bogorodskoye,56.55,37.8833,-18.96,100,97,1.47,RU,1676525177
516,morwa,22.9,73.8333,30.2,15,0,2.01,IN,1676525177
517,yuncheng,35.0231,110.9928,8.86,46,88,1.2,CN,1676525178
518,moussoro,13.6408,16.4901,15.16,22,6,9.23,TD,1676525178
519,nikolsk,53.7189,46.0712,-10.84,95,100,4.16,RU,1676525179
520,medvedevo,56.6339,47.804,-14.04,96,64,3.06,RU,1676525180
521,mehamn,71.0357,27.8492,-2.03,80,0,6.17,NO,1676525180
522,aloja,57.7669,24.8825,-0.05,95,100,2.4,LV,1676525146
523,green river,41.5286,-109.4662,-14.78,95,25,0.54,US,1676525181
524,lerwick,60.1545,-1.1494,7.0,64,68,8.52,GB,1676524905
525,tingi,-11.3,35.0333,17.42,98,100,0.44,TZ,1676525182
526,colac,-38.3333,143.5833,31.21,16,100,2.93,AU,1676525182
527,san andres,12.5847,-81.7006,27.01,74,20,5.66,CO,1676525183
528,raudeberg,61.9875,5.1352,5.37,69,100,11.44,NO,1676525183
529,port hedland,-20.3167,118.5667,37.03,53,8,5.66,AU,1676525184
530,namatanai,-3.6667,152.4333,29.72,67,93,2.13,PG,1676524962
531,calvinia,-31.4707,19.776,18.46,74,28,3.46,ZA,1676525185
532,vilcun,-38.65,-72.2333,10.41,94,6,0.39,CL,1676525185
533,nioro,13.35,-15.75,22.71,43,91,2.76,GM,1676525185
534,kibala,9.1104,18.3463,18.97,32,0,3.09,TD,1676525186
535,husavik,66.0449,-17.3389,-2.49,82,100,3.22,IS,1676525038
536,the valley,18.217,-63.0578,25.05,77,2,9.56,AI,1676525001
537,monrovia,6.3005,-10.7969,24.97,91,16,0.76,LR,1676525080
538,whitefish,48.4111,-114.3376,-10.14,92,0,1.54,US,1676525187
539,chum phae,16.5443,102.0992,23.05,54,100,2.76,TH,1676525188
540,puerto del rosario,28.5004,-13.8627,12.86,71,0,3.09,ES,1676525096
